{
"type": "FeatureCollection",
"name": "SELECT",
"crs": { "type": "name", "properties": { "name": "urn:ogc:def:crs:OGC:1.3:CRS84" } },
"features": [
{ "type": "Feature", "properties": { "NAME": "ALBANY COUNTY JAIL", "ADDRESS": "840 ALBANY SHAKER ROAD", "CITY": "ALBANY", "STATE": "NY", "ZIP": "12211", "TYPE": "USMS IGA", "Male_Female": "Female\/Male", "FY19_ADP": "48.089605734767147", "OVER_UNDER_72_STATUS": "Over 72", "INSPECTION_STANDARD": "NDS", "LAST_INSPECTION_DATE": "2018\/09\/27", "X": -73.820118589493646, "Y": 42.751303428540048, "Dedicated": "N" }, "geometry": { "type": "Point", "coordinates": [ -73.820118589493646, 42.751303428540048 ] } },
{ "type": "Feature", "properties": { "NAME": "FREEBORN COUNTY ADULT DETENTION CENTER", "ADDRESS": "411 SOUTH BROADWAY AVENUE", "CITY": "ALBERT LEA", "STATE": "MN", "ZIP": "56007", "TYPE": "IGSA", "Male_Female": "Male", "FY19_ADP": "71.512544802867353", "OVER_UNDER_72_STATUS": "Over 72", "INSPECTION_STANDARD": "NDS", "LAST_INSPECTION_DATE": "2019\/04\/18", "X": -93.368672009926001, "Y": 43.646319, "Dedicated": "N" }, "geometry": { "type": "Point", "coordinates": [ -93.368672009926001, 43.646319 ] } },
{ "type": "Feature", "properties": { "NAME": "ALEXANDRIA CITY JAIL", "ADDRESS": "2003 MILL ROAD", "CITY": "ALEXANDRIA", "STATE": "VA", "ZIP": "22314", "TYPE": "USMS IGA", "Male_Female": "Female\/Male", "FY19_ADP": "6.8100358422939072E-2", "OVER_UNDER_72_STATUS": "Under 72", "INSPECTION_STANDARD": "NDS", "LAST_INSPECTION_DATE": "2017\/09\/27", "X": -77.065832347155137, "Y": 38.798074700518512, "Dedicated": "N" }, "geometry": { "type": "Point", "coordinates": [ -77.065832347155137, 38.798074700518512 ] } },
{ "type": "Feature", "properties": { "NAME": "NORTHERN VIRGINIA JUVENILE DETENTION CENTER", "ADDRESS": "200 SOUTH WHITING STREET", "CITY": "ALEXANDRIA", "STATE": "VA", "ZIP": "22304", "TYPE": "JUVENILE", "Male_Female": "Female\/Male", "FY19_ADP": "7.5268817204301092E-2", "OVER_UNDER_72_STATUS": "Under 72", "INSPECTION_STANDARD": "N\/A", "LAST_INSPECTION_DATE": "N\/A", "X": -77.137044576923714, "Y": 38.812125089935883, "Dedicated": "N" }, "geometry": { "type": "Point", "coordinates": [ -77.137044576923714, 38.812125089935883 ] } },
{ "type": "Feature", "properties": { "NAME": "BEAVER COUNTY JAIL", "ADDRESS": "6000 WOODLAWN BOULEVARD", "CITY": "ALIQUIPPA", "STATE": "PA", "ZIP": "15001", "TYPE": "USMS IGA", "Male_Female": "Female\/Male", "FY19_ADP": "3.817204301075265", "OVER_UNDER_72_STATUS": "Over 72", "INSPECTION_STANDARD": "NDS", "LAST_INSPECTION_DATE": "2017\/09\/18", "X": -80.24356802637287, "Y": 40.645108935368221, "Dedicated": "N" }, "geometry": { "type": "Point", "coordinates": [ -80.24356802637287, 40.645108935368221 ] } },
{ "type": "Feature", "properties": { "NAME": "RANDALL COUNTY JAIL", "ADDRESS": "9100 SOUTH GEORGIA STREET", "CITY": "AMARILLO", "STATE": "TX", "ZIP": "79118", "TYPE": "USMS IGA", "Male_Female": "Female\/Male", "FY19_ADP": "2.0931899641577032", "OVER_UNDER_72_STATUS": "Under 72", "INSPECTION_STANDARD": "NDS", "LAST_INSPECTION_DATE": "2017\/10\/11", "X": -101.8660551104212, "Y": 35.117639916180977, "Dedicated": "N" }, "geometry": { "type": "Point", "coordinates": [ -101.8660551104212, 35.117639916180977 ] } },
{ "type": "Feature", "properties": { "NAME": "ANCHORAGE CORRECTIONAL COMPLEX", "ADDRESS": "1400 E. 4TH AVE", "CITY": "ANCHORAGE", "STATE": "AK", "ZIP": "99501", "TYPE": "USMS IGA", "Male_Female": "Female\/Male", "FY19_ADP": "0.26164874551971329", "OVER_UNDER_72_STATUS": "Over 72", "INSPECTION_STANDARD": "NDS", "LAST_INSPECTION_DATE": "2017\/09\/08", "X": -149.86120743670509, "Y": 61.218395324012569, "Dedicated": "N" }, "geometry": { "type": "Point", "coordinates": [ -149.861207436705087, 61.218395324012569 ] } },
{ "type": "Feature", "properties": { "NAME": "CALHOUN COUNTY CORRECTIONAL CENTER", "ADDRESS": "185 EAST MICHIGAN AVENUE", "CITY": "BATTLE CREEK", "STATE": "MI", "ZIP": "49014", "TYPE": "IGSA", "Male_Female": "Female\/Male", "FY19_ADP": "180.91397849462359", "OVER_UNDER_72_STATUS": "Over 72", "INSPECTION_STANDARD": "NDS", "LAST_INSPECTION_DATE": "2019\/03\/07", "X": -85.176745726616147, "Y": 42.315753313701528, "Dedicated": "N" }, "geometry": { "type": "Point", "coordinates": [ -85.176745726616147, 42.315753313701528 ] } },
{ "type": "Feature", "properties": { "NAME": "BALDWIN COUNTY CORRECTIONAL CENTER", "ADDRESS": "200 HAND AVE.", "CITY": "BAY MINETTE", "STATE": "AL", "ZIP": "36507", "TYPE": "IGSA", "Male_Female": "Female\/Male", "FY19_ADP": "3.7992831541218668", "OVER_UNDER_72_STATUS": "Under 72", "INSPECTION_STANDARD": "NDS", "LAST_INSPECTION_DATE": "2018\/09\/11", "X": -87.774557827825859, "Y": 30.884018106667259, "Dedicated": "N" }, "geometry": { "type": "Point", "coordinates": [ -87.774557827825859, 30.884018106667259 ] } },
{ "type": "Feature", "properties": { "NAME": "BEDFORD MUNICIPAL DETENTION CENTER", "ADDRESS": "2121 L DON DODSON DRIVE", "CITY": "BEDFORD", "STATE": "TX", "ZIP": "76021", "TYPE": "IGSA", "Male_Female": "Female\/Male", "FY19_ADP": "8.4121863799281016", "OVER_UNDER_72_STATUS": "Under 72", "INSPECTION_STANDARD": "NDS", "LAST_INSPECTION_DATE": "2017\/10\/11", "X": -97.131358362196323, "Y": 32.84115149495009, "Dedicated": "N" }, "geometry": { "type": "Point", "coordinates": [ -97.131358362196323, 32.84115149495009 ] } },
{ "type": "Feature", "properties": { "NAME": "SUFFOLK COUNTY HOUSE OF CORRECTIONS", "ADDRESS": "20 BRADSTON STREET", "CITY": "BOSTON", "STATE": "MA", "ZIP": "2118", "TYPE": "IGSA", "Male_Female": "Female\/Male", "FY19_ADP": "139.28315412186379", "OVER_UNDER_72_STATUS": "Over 72", "INSPECTION_STANDARD": "NDS", "LAST_INSPECTION_DATE": "2019\/05\/16", "X": -71.071335271452398, "Y": 42.332764798228382, "Dedicated": "N" }, "geometry": { "type": "Point", "coordinates": [ -71.071335271452398, 42.332764798228382 ] } },
{ "type": "Feature", "properties": { "NAME": "CLAY COUNTY JAIL", "ADDRESS": "611 EAST JACKSON STREET", "CITY": "BRAZIL", "STATE": "IN", "ZIP": "47834", "TYPE": "USMS IGA", "Male_Female": "Male", "FY19_ADP": "42.939068100359179", "OVER_UNDER_72_STATUS": "Over 72", "INSPECTION_STANDARD": "PBNDS 2008", "LAST_INSPECTION_DATE": "2019\/05\/31", "X": -87.119222056466143, "Y": 39.524108943620782, "Dedicated": "N" }, "geometry": { "type": "Point", "coordinates": [ -87.119222056466143, 39.524108943620782 ] } },
{ "type": "Feature", "properties": { "NAME": "COMPASS HOUSE SHELTER", "ADDRESS": "370 LINWOOD AVE", "CITY": "BUFFALO", "STATE": "NY", "ZIP": "14209", "TYPE": "JUVENILE", "Male_Female": "Female\/Male", "FY19_ADP": "3.584229390681004E-3", "OVER_UNDER_72_STATUS": "Under 72", "INSPECTION_STANDARD": "N\/A", "LAST_INSPECTION_DATE": "N\/A", "X": -78.867783064025275, "Y": 42.912568791014998, "Dedicated": "N" }, "geometry": { "type": "Point", "coordinates": [ -78.867783064025275, 42.912568791014998 ] } },
{ "type": "Feature", "properties": { "NAME": "MINICASSIA DETENTION CENTER", "ADDRESS": "1415 ALBION AVENUE", "CITY": "BURLEY", "STATE": "ID", "ZIP": "83318", "TYPE": "IGSA", "Male_Female": "Female\/Male", "FY19_ADP": "3.1720430107526858", "OVER_UNDER_72_STATUS": "Over 72", "INSPECTION_STANDARD": "NDS", "LAST_INSPECTION_DATE": "2018\/09\/17", "X": -113.7919853261582, "Y": 42.534603, "Dedicated": "N" }, "geometry": { "type": "Point", "coordinates": [ -113.791985326158198, 42.534603 ] } },
{ "type": "Feature", "properties": { "NAME": "BOONE COUNTY JAIL", "ADDRESS": "3020 CONRAD LANE", "CITY": "BURLINGTON", "STATE": "KY", "ZIP": "41005", "TYPE": "USMS IGA", "Male_Female": "Female\/Male", "FY19_ADP": "136.25089605734769", "OVER_UNDER_72_STATUS": "Over 72", "INSPECTION_STANDARD": "NDS", "LAST_INSPECTION_DATE": "2019\/03\/07", "X": -84.728536093802347, "Y": 39.035081430606752, "Dedicated": "N" }, "geometry": { "type": "Point", "coordinates": [ -84.728536093802347, 39.035081430606752 ] } },
{ "type": "Feature", "properties": { "NAME": "BURNET COUNTY JAIL", "ADDRESS": "JAIL ADMINISTRATOR", "CITY": "BURNET", "STATE": "TX", "ZIP": "78611", "TYPE": "IGSA", "Male_Female": "Male", "FY19_ADP": "14.48745519713246", "OVER_UNDER_72_STATUS": "Under 72", "INSPECTION_STANDARD": "NDS", "LAST_INSPECTION_DATE": "2018\/10\/01", "X": -98.22443, "Y": 30.75846, "Dedicated": "N" }, "geometry": { "type": "Point", "coordinates": [ -98.22443, 30.75846 ] } },
{ "type": "Feature", "properties": { "NAME": "DALE G. HAILE DETENTION CENTER", "ADDRESS": "1115 ALBANY", "CITY": "CALDWELL", "STATE": "ID", "ZIP": "83605", "TYPE": "IGSA", "Male_Female": "Female\/Male", "FY19_ADP": "0.79569892473118298", "OVER_UNDER_72_STATUS": "Over 72", "INSPECTION_STANDARD": "NDS", "LAST_INSPECTION_DATE": "2017\/09\/05", "X": -116.6817328110686, "Y": 43.664741713341471, "Dedicated": "N" }, "geometry": { "type": "Point", "coordinates": [ -116.681732811068599, 43.664741713341471 ] } },
{ "type": "Feature", "properties": { "NAME": "NATRONA COUNTY JAIL", "ADDRESS": "1100 BRUCE LANE", "CITY": "CASPER", "STATE": "WY", "ZIP": "82601", "TYPE": "USMS IGA", "Male_Female": "Female\/Male", "FY19_ADP": "0.69892473118279574", "OVER_UNDER_72_STATUS": "Under 72", "INSPECTION_STANDARD": "NDS", "LAST_INSPECTION_DATE": "2018\/09\/18", "X": -106.3443370035198, "Y": 42.862674936753187, "Dedicated": "N" }, "geometry": { "type": "Point", "coordinates": [ -106.344337003519797, 42.862674936753187 ] } },
{ "type": "Feature", "properties": { "NAME": "NEW HANOVER COUNTY JAIL", "ADDRESS": "3950 JUVENILE RD", "CITY": "CASTLE HAYNE", "STATE": "NC", "ZIP": "28429", "TYPE": "IGSA", "Male_Female": "Female\/Male", "FY19_ADP": "1.3333333333333319", "OVER_UNDER_72_STATUS": "Under 72", "INSPECTION_STANDARD": "NDS", "LAST_INSPECTION_DATE": "2017\/09\/15", "X": -77.892625782536598, "Y": 34.322431108899103, "Dedicated": "N" }, "geometry": { "type": "Point", "coordinates": [ -77.892625782536598, 34.322431108899103 ] } },
{ "type": "Feature", "properties": { "NAME": "LINN COUNTY JAIL", "ADDRESS": "53 3RD AVENUE BRIDGE", "CITY": "CEDAR RAPIDS", "STATE": "IA", "ZIP": "52401", "TYPE": "USMS IGA", "Male_Female": "Female\/Male", "FY19_ADP": "12.08243727598566", "OVER_UNDER_72_STATUS": "Over 72", "INSPECTION_STANDARD": "NDS", "LAST_INSPECTION_DATE": "2019\/06\/20", "X": -91.669848379768382, "Y": 41.975391777339041, "Dedicated": "N" }, "geometry": { "type": "Point", "coordinates": [ -91.669848379768382, 41.975391777339041 ] } }
]
}
